{"store":{"IONE MAGDA SILVERIO DE SOUSA#null#null":{"title":"IONE MAGDA SILVERIO DE SOUSA","address":"#null","phone":"#null","latitude":-3.7542097,"longitude":-38.4689226,"addressType":"Revendedor"},"ANTONIA ANADY DOS SANTOS DE LIMA#null8586288744":{"title":"ANTONIA ANADY DOS SANTOS DE LIMA","address":"#null","phone":"8586288744","latitude":-3.7238257,"longitude":-38.5649123,"addressType":"Revendedor"},"ELISA JANUÁRIOelisarjanuario@gmail.com2799397522":{"title":"ELISA JANUÁRIO","address":"elisarjanuario@gmail.com","phone":"2799397522","latitude":-20.314039,"longitude":-40.2973799,"addressType":"Revendedor"},"JANE EYRE LEMPE AGUILAR MELOTE#null2795201251":{"title":"JANE EYRE LEMPE AGUILAR MELOTE","address":"#null","phone":"2795201251","latitude":-19.5170395,"longitude":-40.6208737,"addressType":"Revendedor"},"GERMANO MARCOS DE OREQUIOgermanom@bol.com.br2899455189":{"title":"GERMANO MARCOS DE OREQUIO","address":"germanom@bol.com.br","phone":"2899455189","latitude":-21.1010673,"longitude":-41.045155,"addressType":"Revendedor"},"Barbara Chaves Melo#null#null":{"title":"Barbara Chaves Melo","address":"#null","phone":"#null","latitude":-3.685726399999999,"longitude":-40.3477282,"addressType":"Revendedor"},"DELVANA FIORI RODRIGUES FIUZA#null2797462228":{"title":"DELVANA FIORI RODRIGUES FIUZA","address":"#null","phone":"2797462228","latitude":-18.7553213,"longitude":-40.8968398,"addressType":"Revendedor"},"ADRIANA AMENDOLA#null2481152019":{"title":"ADRIANA AMENDOLA","address":"#null","phone":"2481152019","latitude":-22.4690344,"longitude":-44.4654917,"addressType":"Revendedor"},"ANTONIETA PIANZOLA PASTI#null2898848446":{"title":"ANTONIETA PIANZOLA PASTI","address":"#null","phone":"2898848446","latitude":-20.2976178,"longitude":-40.2957768,"addressType":"Revendedor"},"MARISA DE ANDRADE RIBEIROmaryuyuer@gmail.com2138889261":{"title":"MARISA DE ANDRADE RIBEIRO","address":"maryuyuer@gmail.com","phone":"2138889261","latitude":-22.8732876,"longitude":-43.2636116,"addressType":"Revendedor"},"Anne Jaqueline Galvão De Carvalhoannejaquelinegdc@hotmail.com2433545486":{"title":"Anne Jaqueline Galvão De Carvalho","address":"annejaquelinegdc@hotmail.com","phone":"2433545486","latitude":-22.4739941,"longitude":-44.46467089999999,"addressType":"Revendedor"},"Didiane Cesadidicesa@hotmail.com5432371329":{"title":"Didiane Cesa","address":"didicesa@hotmail.com","phone":"5432371329","latitude":-28.6722585,"longitude":-50.4350558,"addressType":"Revendedor"},"SHIRLEY ANTUNES ZOPELARO BIITTNRshirleyzopelaro@yahoo.com.br2498157903":{"title":"SHIRLEY ANTUNES ZOPELARO BIITTNR","address":"shirleyzopelaro@yahoo.com.br","phone":"2498157903","latitude":-22.4518675,"longitude":-44.4422514,"addressType":"Revendedor"},"Salete Colassiolsalecolassiol@hotmail.com5434613192":{"title":"Salete Colassiol","address":"salecolassiol@hotmail.com","phone":"5434613192","latitude":-29.2973651,"longitude":-51.49932219999999,"addressType":"Revendedor"},"Rosane Cecattorosanececatto@hotmail.com5433215450":{"title":"Rosane Cecatto","address":"rosanececatto@hotmail.com","phone":"5433215450","latitude":-27.6349085,"longitude":-52.2737365,"addressType":"Revendedor"},"Fernanda de Cassia Clara Krollowfeclara@gmail.com5199937261":{"title":"Fernanda de Cassia Clara Krollow","address":"feclara@gmail.com","phone":"5199937261","latitude":-29.917106,"longitude":-51.1983161,"addressType":"Revendedor"},"Mariana Tagliari#null5435321385":{"title":"Mariana Tagliari","address":"#null","phone":"5435321385","latitude":-27.6349085,"longitude":-52.2737365,"addressType":"Revendedor"},"Debora Barefknechtdeborabarfknecht@gmail.com5432923405":{"title":"Debora Barefknecht","address":"deborabarfknecht@gmail.com","phone":"5432923405","latitude":-29.0304667,"longitude":-51.1913973,"addressType":"Revendedor"},"Carla Regina Di Domenico Cerutticarlapresentes@terra.com.br5537444832":{"title":"Carla Regina Di Domenico Cerutti","address":"carlapresentes@terra.com.br","phone":"5537444832","latitude":-27.3613428,"longitude":-53.394775,"addressType":"Revendedor"},"Anna Diesca Jablonski Schalanski#null5533531305":{"title":"Anna Diesca Jablonski Schalanski","address":"#null","phone":"5533531305","latitude":-28.1471611,"longitude":-54.5602177,"addressType":"Revendedor"},"Danuza Vendramin Comunello#null5499249729":{"title":"Danuza Vendramin Comunello","address":"#null","phone":"5499249729","latitude":-28.7825295,"longitude":-51.60939,"addressType":"Revendedor"}}}